number,site_name,lat,long
1,Piute Gorge,35.1123,-115.00353
2,Pinto Mountain,35.1798087,-115.3703719
3,Rock Spring,35.152796,-115.332896
4,Pisgah Crater,34.7453,-116.3753
5,Kelbaker Road,34.69101,-115.67431
6,Norris Camp,34.80776,-115.62727